{"state": [
	{"name": "Andhra Pradesh", "latitude": 29.1858496, "longitude": 95.564897}, 
	{"name": "Arunachal Pradesh", "latitude": 27.6891712, "longitude": 96.4597226}, 
	{"name": "Assam", "latitude": 26.4073841, "longitude": 93.2551303}, 
	{"name": "Bihar", "latitude": 25.6440845, "longitude": 85.906508}, 
	{"name": "Chhattisgarh", "latitude": 21.6637359, "longitude": 81.8406351}, 
	{"name": "Goa", "latitude": 15.3004543, "longitude": 74.0855134}, 
	{"name": "Gujarat", "latitude": 22.41540825, "longitude": 72.03149703699282}, 
	{"name": "Haryana", "latitude": 29.0, "longitude": 76.0}, 
	{"name": "Himachal Pradesh", "latitude": 31.81676015, "longitude": 77.34932051968858}, 
	{"name": "Jammu and Kashmir", "latitude": 34.0476564, "longitude": 76.7972892}, 
	{"name": "Jharkhand", "latitude": 23.4559809, "longitude": 85.2557301}, 
	{"name": "Karnataka", "latitude": 14.5203896, "longitude": 75.7223521}, 
	{"name": "Kerala", "latitude": 10.3528744, "longitude": 76.5120396}, 
	{"name": "Madhya Pradesh", "latitude": 23.8143419, "longitude": 77.5340719}, 
	{"name": "Maharashtra", "latitude": 19.531932, "longitude": 76.0554568}, 
	{"name": "Manipur", "latitude": 24.7208818, "longitude": 93.9229386}, 
	{"name": "Meghalaya", "latitude": 25.5379432, "longitude": 91.2999102}, 
	{"name": "Mizoram", "latitude": 23.2146169, "longitude": 92.8687612}, 
	{"name": "Nagaland", "latitude": 26.1630556, "longitude": 94.5884911}, 
	{"name": "Orissa", "latitude": 20.5431241, "longitude": 84.6897321}, 
	{"name": "Punjab", "latitude": 30.9293211, "longitude": 75.5004841}, 
	{"name": "Rajasthan", "latitude": 26.8105777, "longitude": 73.7684549}, 
	{"name": "Sikkim", "latitude": 27.601029, "longitude": 88.45413638680145}, 
	{"name": "Tamil Nadu", "latitude": 10.9094334, "longitude": 78.3665347}, 
	{"name": "Telangana", "latitude": 17.8495919, "longitude": 79.1151663}, 
	{"name": "Tripura", "latitude": 23.7750823, "longitude": 91.7025091}, 
	{"name": "Uttaranchal", "latitude": 30.3827401, "longitude": 78.1064163}, 
	{"name": "Uttar Pradesh", "latitude": 27.1303344, "longitude": 80.859666}, 
	{"name": "West Bengal", "latitude": 22.9964948, "longitude": 87.6855882}, 
	{"name": "Andaman and Nicobar Islands", "latitude": 10.2188344, "longitude": 92.5771329}, 
	{"name": "Chandigarh", "latitude": 30.7194022, "longitude": 76.7646552}, 
	{"name": "Dadra and Nagar Haveli", "latitude": 20.2735169, "longitude": 73.0043578}, 
	{"name": "Daman and Diu", "latitude": 20.713587, "longitude": 70.92296517214575}, 
	{"name": "Delhi", "latitude": 28.6517178, "longitude": 77.2219388}, 
	{"name": "Lakshadeep", "latitude": 9.968038, "longitude": 76.2635943}, 
	{"name": "Puducherry", "latitude": 11.9340568, "longitude": 79.8306447},
	{"name": "Uttarakhand", "latitude": 30.0668, "longitude": 79.0193},
	{"name": "Odisha", "latitude": 20.9517, "longitude": 85.0985},
	{"name": "Ladakh", "latitude": 34.152588, "longitude": 77.577049},
	{"name": "Lakshadweep", "latitude": 8.295441, "longitude": 73.048973}
]
}